[
  {
    "id": 1,
    "name": "EAM Althéa",
    "description": "Public TSA, type d'accueil : internat, 1 place d'accueil temporaire",
    "address": "1 avenue Pasteur, 59480 La Bassée",
    "latitude": 50.5333,
    "longitude": 2.8167,
    "category": "Les Deux",
    "phone": "03.20.49.97.04",
    "publicType": "Public TSA",
    "admissionType": "internat, 1 place d'accueil temporaire",
    "territory": "MEL",
    "department": "Nord"
  },
  {
    "id": 2,
    "name": "MAS Berthe Morison",
    "description": "Public TSA + Polyhandicap, type d'accueil : Internat et accueil de jour",
    "address": "Avenue Gustave Dron, 59487 Armentières",
    "latitude": 50.6878,
    "longitude": 2.8814,
    "category": "Les Deux",
    "phone": "03.20.10.23.10",
    "publicType": "Public TSA + Polyhandicap",
    "admissionType": "Internat et accueil de jour",
    "territory": "MEL",
    "department": "Nord"
  },
  {
    "id": 3,
    "name": "MAS Martine Marguettaz",
    "description": "Public TSA + Polyhandicap, type d'accueil : internat et accueil de jour",
    "address": "6 rue de Quesnoy, 59520 Marquette-Lez-Lille",
    "latitude": 50.6764,
    "longitude": 3.0667,
    "category": "Les Deux",
    "phone": "03.20.63.76.12",
    "publicType": "Public TSA + Polyhandicap",
    "admissionType": "internat et accueil de jour",
    "territory": "MEL",
    "department": "Nord"
  },
  {
    "id": 4,
    "name": "EAM Dispositif Facilited",
    "description": "Public TSA, type d'accueil : internat, accueil temporaire, et accueil de jour",
    "address": "103 rue Mériaux, 59150 Wattrelos",
    "latitude": 50.7011,
    "longitude": 3.2144,
    "category": "TSA",
    "phone": "03.59.61.35.65",
    "publicType": "Public TSA",
    "admissionType": "internat, accueil temporaire, et accueil de jour",
    "territory": "MEL",
    "department": "Nord"
  },
  {
    "id": 5,
    "name": "MAS Frédéric Dewulf",
    "description": "Public polyhandicap + TSA, type d'accueil : Internat, accueil de jour, accueil temporaire, 1 chambre accueil d'urgence, accueil modulable, MAD (MAS à domicile)",
    "address": "35 rue de Camphin, 59780 Baisieux",
    "latitude": 50.6439,
    "longitude": 3.2422,
    "category": "Les Deux",
    "phone": "03.28.80.04.59",
    "publicType": "Public polyhandicap + TSA",
    "admissionType": "Internat, accueil de jour, accueil temporaire, 1 chambre accueil d'urgence, accueil modulable, MAD (MAS à domicile)",
    "territory": "MEL",
    "department": "Nord"
  },
  {
    "id": 6,
    "name": "MAS les Myosotis",
    "description": "Public TSA + polyhandicapés : Internat, accueil modulable, à domicile, accueil de jour",
    "address": "121 Allée Saint-Roch, 59400 Cambrai",
    "latitude": 50.1767,
    "longitude": 3.2356,
    "category": "Les Deux",
    "phone": "03.27.78.41.41",
    "publicType": "Public TSA + polyhandicapés",
    "admissionType": "Internat, accueil modulable, à domicile, accueil de jour",
    "territory": "HORS-MEL",
    "department": "Nord"
  },
  {
    "id": 7,
    "name": "MAS Attiches",
    "description": "Public TSA, type d'accueil : Internat",
    "address": "38bis rue de la Faisanderie, 59551 Attiches",
    "latitude": 50.5197,
    "longitude": 3.0567,
    "category": "TSA",
    "phone": "03.28.55.20.30",
    "publicType": "Public TSA",
    "admissionType": "Internat",
    "territory": "HORS-MEL",
    "department": "Nord"
  },
  {
    "id": 8,
    "name": "MAS Les Oliviers/EAM Le Terrile Vert",
    "description": "Public TSA, Type d'accueil : internat et accueil de jour",
    "address": "33 rue d'avion, 62800 Liévin",
    "latitude": 50.4222,
    "longitude": 2.7781,
    "category": "TSA",
    "phone": "03.21.72.52.30",
    "publicType": "Public TSA",
    "admissionType": "internat et accueil de jour",
    "territory": "HORS-MEL",
    "department": "Pas-de-Calais"
  },
  {
    "id": 9,
    "name": "Unité de vie Camphin-en-Pévèle",
    "description": "Type d'accueil : ?",
    "address": "126 Grande Rue, 59780 Camphin-en-Pévèle",
    "latitude": 50.595,
    "longitude": 3.26,
    "category": "Les Deux",
    "phone": "03.20.16.08.40",
    "publicType": "?",
    "admissionType": "?",
    "territory": "HORS-MEL",
    "department": "Nord"
  },
  {
    "id": 10,
    "name": "MAS Famille Charles",
    "description": "Public Polyhandicap + TSA, type d'accueil : internat, semi-internat du lundi au vendredi, accueil temporaire, 1 place d'accueil d'urgence, 2 places en appartement MAS Hors les Murs",
    "address": "Rue des Douves, 62190 Lillers",
    "latitude": 50.6367,
    "longitude": 2.4833,
    "category": "Les Deux",
    "phone": "03.21.61.07.07",
    "publicType": "Public Polyhandicap + TSA",
    "admissionType": "internat, semi-internat du lundi au vendredi, accueil temporaire, 1 place d'accueil d'urgence, 2 places en appartement MAS Hors les Murs",
    "territory": "HORS-MEL",
    "department": "Pas-de-Calais"
  },
  {
    "id": 11,
    "name": "MAS le Domaine de Rachel",
    "description": "Public TSA + Polyhandicap, type d'accueil : Internat, accueil temporaire et accueil de jour",
    "address": "Impasse du Cluse, 62910 Eperlecques",
    "latitude": 50.8067,
    "longitude": 2.1467,
    "category": "Les Deux",
    "phone": "03.21.11.18.10",
    "publicType": "Public TSA + Polyhandicap",
    "admissionType": "Internat, accueil temporaire et accueil de jour",
    "territory": "HORS-MEL",
    "department": "Pas-de-Calais"
  },
  {
    "id": 12,
    "name": "Ferme au bois",
    "description": "Public TSA, type d'accueil : ?",
    "address": "250 rue du Commandant Bayart, 59242 Genech",
    "latitude": 50.5283,
    "longitude": 3.2167,
    "category": "TSA",
    "phone": "03.20.05.52.70",
    "publicType": "Public TSA",
    "admissionType": "?",
    "territory": "HORS-MEL",
    "department": "Nord"
  },
  {
    "id": 13,
    "name": "EAM Les 3 Bonniers",
    "description": "Public TSA, type d'accueil : ?",
    "address": "4 rue des 3 Bonniers Marins, 59310 Orchies",
    "latitude": 50.4744,
    "longitude": 3.2444,
    "category": "TSA",
    "phone": "03.20.05.56.57",
    "publicType": "Public TSA",
    "admissionType": "?",
    "territory": "HORS-MEL",
    "department": "Nord"
  },
  {
    "id": 14,
    "name": "EAM L'orée de la Forêt",
    "description": "Public TSA, type d'accueil : internat et accueil temporaire, accueil de jour",
    "address": "38bis rue de la Faisanderie, 59551 Attiches",
    "latitude": 50.5197,
    "longitude": 3.0567,
    "category": "Les Deux",
    "phone": "03.28.55.20.30",
    "publicType": "Public TSA",
    "admissionType": "internat et accueil temporaire, accueil de jour",
    "territory": "HORS-MEL",
    "department": "Nord"
  },
  {
    "id": 15,
    "name": "EAM Le Relai des Moeres",
    "description": "Public TSA + Polyhandicap, type d'accueil : Internat, accueil temporaire, accueil de jour, à domicile",
    "address": "4 rue Charles Nova, 59229 Teteghem",
    "latitude": 51.0178,
    "longitude": 2.4439,
    "category": "Les Deux",
    "phone": "03.28.58.73.69",
    "publicType": "Public TSA + Polyhandicap",
    "admissionType": "Internat, accueil temporaire, accueil de jour, à domicile",
    "territory": "HORS-MEL",
    "department": "Nord"
  },
  {
    "id": 16,
    "name": "MAS Les Berges de la Sensée",
    "description": "Public TSA + Polyhandicap, type d'accueil : Internat, accueil de jour, accueil modulable, accueil temporaire, DASMO",
    "address": "7 Rue du Badoulet, 62128 Croisilles",
    "latitude": 50.1764,
    "longitude": 2.8797,
    "category": "Les Deux",
    "phone": "03.21.16.18.80",
    "publicType": "Public TSA + Polyhandicap",
    "admissionType": "Internat, accueil de jour, accueil modulable, accueil temporaire, DASMO",
    "territory": "HORS-MEL",
    "department": "Pas-de-Calais"
  },
  {
    "id": 17,
    "name": "FAM Aubépines",
    "description": "Public TSA, type d'accueil : internat",
    "address": "2 Chemin des Aubépines, 59496 Hantay",
    "latitude": 50.5367,
    "longitude": 2.8567,
    "category": "TSA",
    "phone": "03.28.01.06.42",
    "publicType": "Public TSA",
    "admissionType": "internat",
    "territory": "HORS-MEL",
    "department": "Nord"
  },
  {
    "id": 18,
    "name": "FAM L'Abbaye",
    "description": "Public TSA + Polyhandicap, type d'accueil : internat et 5 places temporaire",
    "address": "2 Rue d'Aire, 62120 Witternesse",
    "latitude": 50.6083,
    "longitude": 2.3856,
    "category": "Les Deux",
    "phone": "03.21.39.06.73",
    "publicType": "Public TSA + Polyhandicap",
    "admissionType": "internat et 5 places temporaire",
    "territory": "HORS-MEL",
    "department": "Pas-de-Calais"
  },
  {
    "id": 19,
    "name": "EAM Alter-Egaux",
    "description": "Public TSA, type d'accueil : Internat, accueil temporaire, accueil de jour, à domicile",
    "address": "Rue du bois Dupont, 59540 Caudry",
    "latitude": 50.125,
    "longitude": 3.41,
    "category": "TSA",
    "phone": "03.66.32.21.28",
    "publicType": "Public TSA",
    "admissionType": "Internat, accueil temporaire, accueil de jour, à domicile",
    "territory": "HORS-MEL",
    "department": "Nord"
  },
  {
    "id": 20,
    "name": "MAS Marie Thérèse Tamboise",
    "description": "public Polyhandicap, type d'accueil : Internat, accueil de jour, accueil modulable",
    "address": "60 rue de Ravennes, 59910 Bondues",
    "latitude": 50.7011,
    "longitude": 3.0944,
    "category": "Polyhandicap",
    "phone": "03.20.01.03.63",
    "publicType": "public Polyhandicap",
    "admissionType": "Internat, accueil de jour, accueil modulable",
    "territory": "MEL",
    "department": "Nord"
  },
  {
    "id": 21,
    "name": "MAS La Gerlotte",
    "description": "public : Polyhandicap, type d'accueil : Internat, accueil de jour, accueil temporaire",
    "address": "Rue du Fort, 59700 Marcq-En-Baroeul",
    "latitude": 50.6711,
    "longitude": 3.0956,
    "category": "Polyhandicap",
    "phone": "03.28.09.94.15",
    "publicType": "public : Polyhandicap",
    "admissionType": "Internat, accueil de jour, accueil temporaire",
    "territory": "MEL",
    "department": "Nord"
  },
  {
    "id": 22,
    "name": "MAS Le Hameau",
    "description": "public : Polyhandicap, type d'accueil : Internat, accueil d'urgence, accueil de jour",
    "address": "3 rue Joseph Gombert, 59496 Hantay",
    "latitude": 50.5367,
    "longitude": 2.8567,
    "category": "Polyhandicap",
    "phone": "03.20.88.88.00",
    "publicType": "public : Polyhandicap",
    "admissionType": "Internat, accueil d'urgence, accueil de jour",
    "territory": "MEL",
    "department": "Nord"
  },
  {
    "id": 23,
    "name": "MAS Nouveau Monde",
    "description": "public : Polyhandicap, Internat, accueil de jour, accueil modulable",
    "address": "8 rue de Rio, 59930 La Chapelle-d'Armentières",
    "latitude": 50.6722,
    "longitude": 2.8944,
    "category": "Polyhandicap",
    "phone": "03.20.30.14.97",
    "publicType": "public : Polyhandicap",
    "admissionType": "Internat, accueil de jour, accueil modulable",
    "territory": "MEL",
    "department": "Nord"
  },
  {
    "id": 24,
    "name": "MAS Le Havre de Galadriel",
    "description": "public : polyhandicap, type d'accueil : internat, accueil temporaire, accueil de jour",
    "address": "24 rue des Fleurs, 59120 Loos",
    "latitude": 50.6133,
    "longitude": 3.0139,
    "category": "Polyhandicap",
    "phone": "03.20.88.56.00",
    "publicType": "public : polyhandicap",
    "admissionType": "internat, accueil temporaire, accueil de jour",
    "territory": "MEL",
    "department": "Nord"
  },
  {
    "id": 25,
    "name": "MAS Le Chemin Vert",
    "description": "public : Polyhandicap, type d'accueil : internat",
    "address": "Domaine du Centre Hospitalier de Douai, 59187 Dechy",
    "latitude": 50.35,
    "longitude": 3.1289,
    "category": "Polyhandicap",
    "phone": "03.74.22.00.20",
    "publicType": "public : Polyhandicap",
    "admissionType": "internat",
    "territory": "HORS-MEL",
    "department": "Nord"
  },
  {
    "id": 26,
    "name": "MAS la Dune aux Pins",
    "description": "Public Polyhandicap, type d'accueil : internat",
    "address": "255 rue de la Frontière, 59254 Ghyvelde",
    "latitude": 51.0533,
    "longitude": 2.5283,
    "category": "Polyhandicap",
    "phone": "03.28.26.68.00",
    "publicType": "Public Polyhandicap",
    "admissionType": "internat",
    "territory": "HORS-MEL",
    "department": "Nord"
  },
  {
    "id": 27,
    "name": "MAS La Bleuse Borne",
    "description": "Public polyhandicapé, type d'accueil : Internat, accueil de jour et MAD (MAS à domicile)",
    "address": "207 Avenue Ernest Couteaux, 59230 Saint-Amand-les-Eaux",
    "latitude": 50.4478,
    "longitude": 3.44,
    "category": "Polyhandicap",
    "phone": "03.27.19.18.30",
    "publicType": "Public polyhandicapé",
    "admissionType": "Internat, accueil de jour et MAD (MAS à domicile)",
    "territory": "HORS-MEL",
    "department": "Nord"
  },
  {
    "id": 28,
    "name": "MAS de Felleries",
    "description": "Type d'accueil : ?",
    "address": "21 rue du Val Joly, 59740 Solre Le Château",
    "latitude": 50.1744,
    "longitude": 4.0411,
    "category": "Polyhandicap",
    "phone": "03.27.56.75.46",
    "publicType": "?",
    "admissionType": "?",
    "territory": "HORS-MEL",
    "department": "Nord"
  },
  {
    "id": 29,
    "name": "MAS de l'UDAPEI",
    "description": "Public polyhandicap, type d'accueil : internat, accueil de jour, temporaire (1 place)",
    "address": "56 rue Emile Zola, 59239 Thumeries",
    "latitude": 50.4783,
    "longitude": 3.0533,
    "category": "Polyhandicap",
    "phone": "03.20.90.40.50",
    "publicType": "Public polyhandicap",
    "admissionType": "internat, accueil de jour, temporaire (1 place)",
    "territory": "HORS-MEL",
    "department": "Nord"
  },
  {
    "id": 30,
    "name": "MAS de Oignies",
    "description": "Public Polyhandicap, type d'accueil : internat, accueil de jour, temporaire, domicile",
    "address": "96 rue Pasteur, 62590 Oignies",
    "latitude": 50.4633,
    "longitude": 2.9933,
    "category": "Polyhandicap",
    "phone": "03.21.69.39.50",
    "publicType": "Public Polyhandicap",
    "admissionType": "internat, accueil de jour, temporaire, domicile",
    "territory": "HORS-MEL",
    "department": "Pas-de-Calais"
  },
  {
    "id": 31,
    "name": "MAS Les Hélianthes",
    "description": "Type d'accueil : ?",
    "address": "Route de la Bassée, 62880 Vendin-le-Viel",
    "latitude": 50.4744,
    "longitude": 2.8633,
    "category": "Polyhandicap",
    "phone": "03.21.79.53.60",
    "publicType": "?",
    "admissionType": "?",
    "territory": "HORS-MEL",
    "department": "Pas-de-Calais"
  },
  {
    "id": 32,
    "name": "Résidence Reuze Lied",
    "description": "Public polyhandicap, type d'accueil : internat",
    "address": "740 Route de Locre, 59270 Bailleul",
    "latitude": 50.7383,
    "longitude": 2.7333,
    "category": "Polyhandicap",
    "phone": "03.28.43.47.53",
    "publicType": "Public polyhandicap",
    "admissionType": "internat",
    "territory": "HORS-MEL",
    "department": "Nord"
  }
]
